nombre,estado,municipio,lat,lng,telefono,whatsapp,direccion
Vivero Ejemplo Uno,Morelos,Cuautla,18.8121,-98.9542,7351234567,7351234567,Carretera Cuautla-Izúcar km 2
Vivero Ejemplo Dos,Morelos,Yautepec,18.8814,-99.0670,,7359876543,Av. Los Viveros 15
Vivero Ejemplo Tres,Estado de México,Villa Guerrero,18.9628,-99.6417,7221112233,,Camino Real s/n
Vivero Ejemplo Cuatro,Puebla,Atlixco,18.9077,-98.4372,,2441234567,Calle de las Flores 8
Vivero Ejemplo Cinco,Ciudad de México,Xochimilco,19.2578,-99.1058,5551234567,5551234567,Mercado de plantas Cuemanco local 12
